{  
   "type":"FeatureCollection",
    "features":[  
      {"type":"Feature","properties":{"group_name":"Bank","title":"Sterling Bank","services":"Bank Services","rating":4,"icon":{"iconUrl":"assets/bank.png","iconSize":[48,48],"iconAnchor":[50,50],"popupAnchor":[0,-55],"className":"Bank"}},"geometry":{"type":"Point","coordinates":[8.551455,12.008141]}},{"type":"Feature","properties":{"group_name":"Bank","title":"Access Bank","services":"Bank Services","rating":3,"icon":{"iconUrl":"assets/bank.png","iconSize":[48,48],"iconAnchor":[50,50],"popupAnchor":[0,-55],"className":"Bank"}},"geometry":{"type":"Point","coordinates":[8.551455,12.008141]}},{"type":"Feature","properties":{"group_name":"Bank","title":"GT Bank","services":"Bank Services","rating":5,"icon":{"iconUrl":"assets/bank.png","iconSize":[48,48],"iconAnchor":[50,50],"popupAnchor":[0,-55],"className":"Bank"}},"geometry":{"type":"Point","coordinates":[8.551455,12.008141]}},{"type":"Feature","properties":{"group_name":"Bank","title":"First Bank","services":"Bank Services","rating":4,"icon":{"iconUrl":"assets/bank.png","iconSize":[48,48],"iconAnchor":[50,50],"popupAnchor":[0,-55],"className":"Bank"}},"geometry":{"type":"Point","coordinates":[8.544679,12.007932]}},{"type":"Feature","properties":{"group_name":"Bank","title":"Sky Bank","services":"Bank Services","rating":4,"icon":{"iconUrl":"assets/bank.png","iconSize":[48,48],"iconAnchor":[50,50],"popupAnchor":[0,-55],"className":"Bank"}},"geometry":{"type":"Point","coordinates":[8.548213,12.007463]}},{"type":"Feature","properties":{"group_name":"Bank","title":"City Bank","services":"","rating":4,"icon":{"iconUrl":"assets/bank.png","iconSize":[48,48],"iconAnchor":[50,50],"popupAnchor":[0,-55],"className":"Bank"}},"geometry":{"type":"Point","coordinates":[8.54198,12.00728]}},{"type":"Feature","properties":{"group_name":"Bank","title":"Sterling Bank","services":"Bank Services","rating":4,"icon":{"iconUrl":"assets/bank.png","iconSize":[48,48],"iconAnchor":[50,50],"popupAnchor":[0,-55],"className":"Bank"}},"geometry":{"type":"Point","coordinates":[8.54221,12.007]}},{"type":"Feature","properties":{"group_name":"Bank","title":"Skybank","services":"Bank Services","rating":4,"icon":{"iconUrl":"assets/bank.png","iconSize":[48,48],"iconAnchor":[50,50],"popupAnchor":[0,-55],"className":"Bank"}},"geometry":{"type":"Point","coordinates":[8.54339,12.0092]}},{"type":"Feature","properties":{"group_name":"Bank","title":"Unity Bank ","services":"Bank Services","rating":4,"icon":{"iconUrl":"assets/bank.png","iconSize":[48,48],"iconAnchor":[50,50],"popupAnchor":[0,-55],"className":"Bank"}},"geometry":{"type":"Point","coordinates":[8.54221,12.007]}},{"type":"Feature","properties":{"group_name":"Bank","title":"Central Bank Of Nigeria","services":"Bank Services","rating":4,"icon":{"iconUrl":"assets/bank.png","iconSize":[48,48],"iconAnchor":[50,50],"popupAnchor":[0,-55],"className":"Bank"}},"geometry":{"type":"Point","coordinates":[8.54221,12.007]}},{"type":"Feature","properties":{"group_name":"Bank","title":"First Bank","services":"Bank Services","rating":4,"icon":{"iconUrl":"assets/bank.png","iconSize":[48,48],"iconAnchor":[50,50],"popupAnchor":[0,-55],"className":"Bank"}},"geometry":{"type":"Point","coordinates":[8.54221,12.007]}},{"type":"Feature","properties":{"group_name":"Bank","title":"Union Bank","services":"Bank Services","rating":4,"icon":{"iconUrl":"assets/bank.png","iconSize":[48,48],"iconAnchor":[50,50],"popupAnchor":[0,-55],"className":"Bank"}},"geometry":{"type":"Point","coordinates":[8.54422,12.00461]}},{"type":"Feature","properties":{"group_name":"Food","title":"Yahuza Suya Spot","services":"Suya","rating":4,"icon":{"iconUrl":"assets/food.png","iconSize":[48,48],"iconAnchor":[50,50],"popupAnchor":[0,-55],"className":"Food"}},"geometry":{"type":"Point","coordinates":[8.5611,11.98998]}},{"type":"Feature","properties":{"group_name":"Food","title":"Dalal","services":"Burgers & Softdrinks","rating":4,"icon":{"iconUrl":"assets/food.png","iconSize":[48,48],"iconAnchor":[50,50],"popupAnchor":[0,-55],"className":"Food"}},"geometry":{"type":"Point","coordinates":[8.54175,12.00279]}},{"type":"Feature","properties":{"group_name":"Food","title":"Chikenza","services":"Suya & Softdrinks","rating":4,"icon":{"iconUrl":"assets/food.png","iconSize":[48,48],"iconAnchor":[50,50],"popupAnchor":[0,-55],"className":"Food"}},"geometry":{"type":"Point","coordinates":[8.55174,11.99414]}},{"type":"Feature","properties":{"group_name":"Food","title":"7 30","services":"Food & Softdrinks","rating":4,"icon":{"iconUrl":"assets/food.png","iconSize":[48,48],"iconAnchor":[50,50],"popupAnchor":[0,-55],"className":"Food"}},"geometry":{"type":"Point","coordinates":[8.5514,11.99098]}},{"type":"Feature","properties":{"group_name":"Government","title":"Government House ","services":"","rating":4,"icon":{"iconUrl":"assets/government.png","iconSize":[48,48],"iconAnchor":[50,50],"popupAnchor":[0,-55],"className":"Government"}},"geometry":{"type":"Point","coordinates":[8.553434,11.984011]}},{"type":"Feature","properties":{"group_name":"Internet Cafe","title":"Al Ciroma Cafe ","services":"online registration","rating":4,"icon":{"iconUrl":"assets/cafe.png","iconSize":[48,48],"iconAnchor":[50,50],"popupAnchor":[0,-55],"className":"Internet Cafe"}},"geometry":{"type":"Point","coordinates":[8.54136,12.02551]}},{"type":"Feature","properties":{"group_name":"Internet Cafe","title":"Al Ciroma Cafe ","services":"online registration","rating":4,"icon":{"iconUrl":"assets/cafe.png","iconSize":[48,48],"iconAnchor":[50,50],"popupAnchor":[0,-55],"className":"Internet Cafe"}},"geometry":{"type":"Point","coordinates":[8.54158,12.02525]}},{"type":"Feature","properties":{"group_name":"Internet Cafe","title":"Gumel cafe","services":"","rating":4,"icon":{"iconUrl":"assets/cafe.png","iconSize":[48,48],"iconAnchor":[50,50],"popupAnchor":[0,-55],"className":"Internet Cafe"}},"geometry":{"type":"Point","coordinates":[8.5674,11.97415]}},{"type":"Feature","properties":{"group_name":"Other","title":"Amin Dean Mosque ","services":"Islam ","rating":4,"icon":{"iconUrl":"assets/other.png","iconSize":[48,48],"iconAnchor":[50,50],"popupAnchor":[0,-55],"className":"Other"}},"geometry":{"type":"Point","coordinates":[8.567021,12.001937]}},{"type":"Feature","properties":{"group_name":"Other","title":"El tengi","services":"Medication, Pharmacy","rating":4,"icon":{"iconUrl":"assets/other.png","iconSize":[48,48],"iconAnchor":[50,50],"popupAnchor":[0,-55],"className":"Other"}},"geometry":{"type":"Point","coordinates":[8.551647,11.98735]}},{"type":"Feature","properties":{"group_name":"Other","title":"Roxy Amusement Park","services":"Rides for kids","rating":0,"icon":{"iconUrl":"assets/other.png","iconSize":[48,48],"iconAnchor":[50,50],"popupAnchor":[0,-55],"className":"Other"}},"geometry":{"type":"Point","coordinates":[8.541828,11.989381]}},{"type":"Feature","properties":{"group_name":"Other","title":"Classic Barbers ","services":"Male haircut, Fades","rating":5,"icon":{"iconUrl":"assets/other.png","iconSize":[48,48],"iconAnchor":[50,50],"popupAnchor":[0,-55],"className":"Other"}},"geometry":{"type":"Point","coordinates":[8.561274,12.003034]}},{"type":"Feature","properties":{"group_name":"Other","title":"Seasweet","services":"Burgers, Softdrinks","rating":4,"icon":{"iconUrl":"assets/other.png","iconSize":[48,48],"iconAnchor":[50,50],"popupAnchor":[0,-55],"className":"Other"}},"geometry":{"type":"Point","coordinates":[8.56925,11.98232]}},{"type":"Feature","properties":{"group_name":"Other","title":"K Suite","services":"hetol","rating":4,"icon":{"iconUrl":"assets/other.png","iconSize":[48,48],"iconAnchor":[50,50],"popupAnchor":[0,-55],"className":"Other"}},"geometry":{"type":"Point","coordinates":[8.5527,11.99811]}},{"type":"Feature","properties":{"group_name":"Other","title":"Karota Office","services":"","rating":4,"icon":{"iconUrl":"assets/other.png","iconSize":[48,48],"iconAnchor":[50,50],"popupAnchor":[0,-55],"className":"Other"}},"geometry":{"type":"Point","coordinates":[8.55283,12.01805]}},{"type":"Feature","properties":{"group_name":"Other","title":"Ammasco International","services":"Engine oil factory","rating":4,"icon":{"iconUrl":"assets/other.png","iconSize":[48,48],"iconAnchor":[50,50],"popupAnchor":[0,-55],"className":"Other"}},"geometry":{"type":"Point","coordinates":[8.55,12.02049]}},{"type":"Feature","properties":{"group_name":"Other","title":"Honda place ","services":"","rating":4,"icon":{"iconUrl":"assets/other.png","iconSize":[48,48],"iconAnchor":[50,50],"popupAnchor":[0,-55],"className":"Other"}},"geometry":{"type":"Point","coordinates":[8.55,12.02049]}},{"type":"Feature","properties":{"group_name":"Other","title":"Soso Wearz ","services":"Boutique","rating":4,"icon":{"iconUrl":"assets/other.png","iconSize":[48,48],"iconAnchor":[50,50],"popupAnchor":[0,-55],"className":"Other"}},"geometry":{"type":"Point","coordinates":[8.53809,12.02567]}},{"type":"Feature","properties":{"group_name":"Other","title":"King Dreams","services":"Boutique","rating":4,"icon":{"iconUrl":"assets/other.png","iconSize":[48,48],"iconAnchor":[50,50],"popupAnchor":[0,-55],"className":"Other"}},"geometry":{"type":"Point","coordinates":[8.53895,12.02295]}},{"type":"Feature","properties":{"group_name":"Other","title":"Wake Up","services":"Boutique","rating":4,"icon":{"iconUrl":"assets/other.png","iconSize":[48,48],"iconAnchor":[50,50],"popupAnchor":[0,-55],"className":"Other"}},"geometry":{"type":"Point","coordinates":[8.53763,12.01577]}},{"type":"Feature","properties":{"group_name":"Other","title":"Franco Sport","services":"","rating":4,"icon":{"iconUrl":"assets/other.png","iconSize":[48,48],"iconAnchor":[50,50],"popupAnchor":[0,-55],"className":"Other"}},"geometry":{"type":"Point","coordinates":[8.53767,12.01606]}},{"type":"Feature","properties":{"group_name":"Other","title":"Large Format","services":"printing","rating":4,"icon":{"iconUrl":"assets/other.png","iconSize":[48,48],"iconAnchor":[50,50],"popupAnchor":[0,-55],"className":"Other"}},"geometry":{"type":"Point","coordinates":[8.54018,12.01381]}},{"type":"Feature","properties":{"group_name":"Other","title":"International Clinics And Hospital","services":"Hospital","rating":4,"icon":{"iconUrl":"assets/other.png","iconSize":[48,48],"iconAnchor":[50,50],"popupAnchor":[0,-55],"className":"Other"}},"geometry":{"type":"Point","coordinates":[8.54339,12.0092]}},{"type":"Feature","properties":{"group_name":"Other","title":"PZ Cussons plc","services":"","rating":4,"icon":{"iconUrl":"assets/other.png","iconSize":[48,48],"iconAnchor":[50,50],"popupAnchor":[0,-55],"className":"Other"}},"geometry":{"type":"Point","coordinates":[8.54221,12.007]}},{"type":"Feature","properties":{"group_name":"Other","title":"LG kano","services":"life's good","rating":4,"icon":{"iconUrl":"assets/other.png","iconSize":[48,48],"iconAnchor":[50,50],"popupAnchor":[0,-55],"className":"Other"}},"geometry":{"type":"Point","coordinates":[8.54176,12.00308]}},{"type":"Feature","properties":{"group_name":"Other","title":"MTN Office","services":"","rating":4,"icon":{"iconUrl":"assets/other.png","iconSize":[48,48],"iconAnchor":[50,50],"popupAnchor":[0,-55],"className":"Other"}},"geometry":{"type":"Point","coordinates":[8.54176,12.00308]}},{"type":"Feature","properties":{"group_name":"Other","title":"Grand Central Hotel","services":"Hotel","rating":4,"icon":{"iconUrl":"assets/other.png","iconSize":[48,48],"iconAnchor":[50,50],"popupAnchor":[0,-55],"className":"Other"}},"geometry":{"type":"Point","coordinates":[8.54422,12.00461]}},{"type":"Feature","properties":{"group_name":"Other","title":"Etisalat office ","services":"Help","rating":4,"icon":{"iconUrl":"assets/other.png","iconSize":[48,48],"iconAnchor":[50,50],"popupAnchor":[0,-55],"className":"Other"}},"geometry":{"type":"Point","coordinates":[8.54242,12.00173]}},{"type":"Feature","properties":{"group_name":"Other","title":"Prince Hotel","services":"","rating":4,"icon":{"iconUrl":"assets/other.png","iconSize":[48,48],"iconAnchor":[50,50],"popupAnchor":[0,-55],"className":"Other"}},"geometry":{"type":"Point","coordinates":[8.54908,11.99615]}},{"type":"Feature","properties":{"group_name":"Other","title":"Abdullahi Wase Specialist Hospital","services":"","rating":4,"icon":{"iconUrl":"assets/other.png","iconSize":[48,48],"iconAnchor":[50,50],"popupAnchor":[0,-55],"className":"Other"}},"geometry":{"type":"Point","coordinates":[8.54729,12.00047]}},{"type":"Feature","properties":{"group_name":"Other","title":"Meena Event Center","services":"","rating":4,"icon":{"iconUrl":"assets/other.png","iconSize":[48,48],"iconAnchor":[50,50],"popupAnchor":[0,-55],"className":"Other"}},"geometry":{"type":"Point","coordinates":[8.54747,11.98682]}},{"type":"Feature","properties":{"group_name":"Petrol Station","title":"Oando","services":"Petrol & Diesel","rating":4,"icon":{"iconUrl":"assets/petrol.png","iconSize":[48,48],"iconAnchor":[50,50],"popupAnchor":[0,-55],"className":"Petrol Station"}},"geometry":{"type":"Point","coordinates":[8.551455,12.008141]}},{"type":"Feature","properties":{"group_name":"Petrol Station","title":"Total","services":"","rating":4,"icon":{"iconUrl":"assets/petrol.png","iconSize":[48,48],"iconAnchor":[50,50],"popupAnchor":[0,-55],"className":"Petrol Station"}},"geometry":{"type":"Point","coordinates":[8.53895,12.02295]}},{"type":"Feature","properties":{"group_name":"Petrol Station","title":"AA Rano","services":"","rating":4,"icon":{"iconUrl":"assets/petrol.png","iconSize":[48,48],"iconAnchor":[50,50],"popupAnchor":[0,-55],"className":"Petrol Station"}},"geometry":{"type":"Point","coordinates":[8.54158,12.02525]}},{"type":"Feature","properties":{"group_name":"Petrol Station","title":"A B Y Petroleum","services":"","rating":4,"icon":{"iconUrl":"assets/petrol.png","iconSize":[48,48],"iconAnchor":[50,50],"popupAnchor":[0,-55],"className":"Petrol Station"}},"geometry":{"type":"Point","coordinates":[8.54018,12.01381]}},{"type":"Feature","properties":{"group_name":"Petrol Station","title":"AA RANO","services":"","rating":4,"icon":{"iconUrl":"assets/petrol.png","iconSize":[48,48],"iconAnchor":[50,50],"popupAnchor":[0,-55],"className":"Petrol Station"}},"geometry":{"type":"Point","coordinates":[8.54176,12.00308]}},{"type":"Feature","properties":{"group_name":"Photo/Editing Studio","title":"Arewa Studio","services":"Photo editing","rating":3,"icon":{"iconUrl":"assets/studio.png","iconSize":[48,48],"iconAnchor":[50,50],"popupAnchor":[0,-55],"className":"Studio"}},"geometry":{"type":"Point","coordinates":[8.551647,11.98735]}},{"type":"Feature","properties":{"group_name":"Photo/Editing Studio","title":"Motion Picture","services":"Photo editing & Film Editing","rating":5,"icon":{"iconUrl":"assets/studio.png","iconSize":[48,48],"iconAnchor":[50,50],"popupAnchor":[0,-55],"className":"Studio"}},"geometry":{"type":"Point","coordinates":[8.558662,11.980684]}},{"type":"Feature","properties":{"group_name":"Recharge Card","title":"Recharge Card","services":"MTN, GLO, Airtell , Etisala","rating":4,"icon":{"iconUrl":"assets/topup.png","iconSize":[48,48],"iconAnchor":[50,50],"popupAnchor":[0,-55],"className":"Recharge Card"}},"geometry":{"type":"Point","coordinates":[8.551647,11.98735]}},{"type":"Feature","properties":{"group_name":"Saloon","title":"Beauty world ","services":"Saloon And Boutique","rating":4,"icon":{"iconUrl":"assets/saloon.png","iconSize":[48,48],"iconAnchor":[50,50],"popupAnchor":[0,-55],"className":"Saloon"}},"geometry":{"type":"Point","coordinates":[8.53767,12.01606]}},{"type":"Feature","properties":{"group_name":"School","title":"Nigerian Turkish International School","services":"Education","rating":3,"icon":{"iconUrl":"assets/school.png","iconSize":[48,48],"iconAnchor":[50,50],"popupAnchor":[0,-55],"className":"School"}},"geometry":{"type":"Point","coordinates":[8.559027,11.98044]}},{"type":"Feature","properties":{"group_name":"School","title":"Crescent International School","services":"Education, Football pitch ","rating":5,"icon":{"iconUrl":"assets/school.png","iconSize":[48,48],"iconAnchor":[50,50],"popupAnchor":[0,-55],"className":"School"}},"geometry":{"type":"Point","coordinates":[8.564284,11.991944]}},{"type":"Feature","properties":{"group_name":"School","title":"Bin Iyaye ","services":"","rating":4,"icon":{"iconUrl":"assets/school.png","iconSize":[48,48],"iconAnchor":[50,50],"popupAnchor":[0,-55],"className":"School"}},"geometry":{"type":"Point","coordinates":[8.56586,11.98483      ]
         }
      }
   ]
}